[
  { "name": "New York", "lat": 40.7128, "lon": -74.0060 },
  { "name": "Los Angeles", "lat": 34.0522, "lon": -118.2437 },
  { "name": "Chicago", "lat": 41.8781, "lon": -87.6298 },
  { "name": "Houston", "lat": 29.7604, "lon": -95.3698 },
  { "name": "Phoenix", "lat": 33.4484, "lon": -112.0740 },
  { "name": "Philadelphia", "lat": 39.9526, "lon": -75.1652 },
  { "name": "San Antonio", "lat": 29.4241, "lon": -98.4936 },
  { "name": "San Diego", "lat": 32.7157, "lon": -117.1611 },
  { "name": "Dallas", "lat": 32.7767, "lon": -96.7970 },
  { "name": "San Jose", "lat": 37.3382, "lon": -121.8863 },
  { "name": "Austin", "lat": 30.2672, "lon": -97.7431 },
  { "name": "Jacksonville", "lat": 30.3322, "lon": -81.6557 },
  { "name": "San Francisco", "lat": 37.7749, "lon": -122.4194 },
  { "name": "Columbus", "lat": 39.9612, "lon": -82.9988 },
  { "name": "Indianapolis", "lat": 39.7684, "lon": -86.1581 },
  { "name": "Fort Worth", "lat": 32.7555, "lon": -97.3308 },
  { "name": "Charlotte", "lat": 35.2271, "lon": -80.8431 },
  { "name": "Seattle", "lat": 47.6062, "lon": -122.3321 },
  { "name": "Denver", "lat": 39.7392, "lon": -104.9903 },
  { "name": "Washington", "lat": 38.9072, "lon": -77.0369 },
  { "name": "Boston", "lat": 42.3601, "lon": -71.0589 },
  { "name": "El Paso", "lat": 31.7619, "lon": -106.4850 },
  { "name": "Nashville", "lat": 36.1627, "lon": -86.7816 },
  { "name": "Detroit", "lat": 42.3314, "lon": -83.0458 },
  { "name": "Oklahoma City", "lat": 35.4676, "lon": -97.5164 },
  { "name": "Portland", "lat": 45.5051, "lon": -122.6750 },
  { "name": "Las Vegas", "lat": 36.1699, "lon": -115.1398 },
  { "name": "Memphis", "lat": 35.1495, "lon": -90.0490 },
  { "name": "Louisville", "lat": 38.2527, "lon": -85.7585 },
  { "name": "Baltimore", "lat": 39.2904, "lon": -76.6122 },
  { "name": "Milwaukee", "lat": 43.0389, "lon": -87.9065 },
  { "name": "Albuquerque", "lat": 35.0844, "lon": -106.6504 },
  { "name": "Tucson", "lat": 32.2226, "lon": -110.9747 },
  { "name": "Fresno", "lat": 36.7372, "lon": -119.7871 },
  { "name": "Sacramento", "lat": 38.5816, "lon": -121.4944 },
  { "name": "Kansas City", "lat": 39.0997, "lon": -94.5786 },
  { "name": "Long Beach", "lat": 33.7701, "lon": -118.1937 },
  { "name": "Mesa", "lat": 33.4152, "lon": -111.8315 },
  { "name": "Atlanta", "lat": 33.7490, "lon": -84.3880 },
  { "name": "Colorado Springs", "lat": 38.8339, "lon": -104.8214 },
  { "name": "Raleigh", "lat": 35.7796, "lon": -78.6382 },
  { "name": "Omaha", "lat": 41.2565, "lon": -95.9345 },
  { "name": "Miami", "lat": 25.7617, "lon": -80.1918 },
  { "name": "Oakland", "lat": 37.8044, "lon": -122.2711 },
  { "name": "Minneapolis", "lat": 44.9778, "lon": -93.2650 },
  { "name": "Tulsa", "lat": 36.1540, "lon": -95.9928 },
  { "name": "Wichita", "lat": 37.6872, "lon": -97.3301 },
  { "name": "New Orleans", "lat": 29.9511, "lon": -90.0715 },
  { "name": "Arlington", "lat": 32.7357, "lon": -97.1081 },
  { "name": "Cleveland", "lat": 41.4993, "lon": -81.6944 },
  { "name": "Bakersfield", "lat": 35.3733, "lon": -119.0187 },
  { "name": "Tampa", "lat": 27.9506, "lon": -82.4572 },
  { "name": "Aurora", "lat": 39.7294, "lon": -104.8319 },
  { "name": "North Dakota", "lat": 47.5515, "lon": -101.0020 },
  { "name": "Salt Lake City", "lat": 40.7608, "lon": -111.8910 },
  { "name": "Boise", "lat": 43.6150, "lon": -116.2023 },
  { "name": "Montana", "lat": 46.8797, "lon": -110.3626 },
  { "name": "South Dakota", "lat": 44.2998, "lon": -99.4388 },
  { "name": "Iowa", "lat": 41.8780, "lon": -93.0977 },
  { "name": "Nebraska", "lat": 41.4925, "lon": -99.9018 },
  { "name": "Illinois", "lat": 40.6331, "lon": -89.3985 },
  { "name": "Nevada", "lat": 39.8760, "lon": -117.2241 },
  { "name": "Oregon", "lat": 43.8041, "lon": -120.5542 },
  { "name": "Fargo", "lat": 46.8772, "lon": -96.7898 },
  { "name": "Rapid City", "lat": 44.0805, "lon": -103.2310 },
  { "name": "Cedar Rapids", "lat": 41.9779, "lon": -91.6656 },
  { "name": "Lincoln", "lat": 40.8136, "lon": -96.7026 },
  { "name": "Springfield", "lat": 39.7817, "lon": -89.6501 },
  { "name": "Reno", "lat": 39.5296, "lon": -119.8138 },
  { "name": "Eugene", "lat": 44.0521, "lon": -123.0868 },
  { "name": "Sioux Falls", "lat": 43.5467, "lon": -96.7313 },
  { "name": "Des Moines", "lat": 41.5868, "lon": -93.6250 },
  { "name": "Omaha", "lat": 41.2565, "lon": -95.9345 },
  { "name": "Peoria", "lat": 40.6936, "lon": -89.5880 },
  { "name": "Las Cruces", "lat": 32.3197, "lon": -106.7637 },
  { "name": "Salem", "lat": 44.9429, "lon": -123.0351 },
  { "name": "Casper", "lat": 42.8666, "lon": -106.3131 },
  { "name": "Iowa City", "lat": 41.6611, "lon": -91.5302 },
  { "name": "Carson City", "lat": 39.1638, "lon": -119.7674 },
  { "name": "Bend", "lat": 44.0582, "lon": -121.3153 },
  { "name": "Champaign", "lat": 40.1164, "lon": -88.2434 },
  { "name": "Sparks", "lat": 39.5349, "lon": -119.7527 },
  { "name": "San Angelo", "lat": 31.4638, "lon": -100.4370 },
  { "name": "Pennsylvania", "lat": 41.2033, "lon": -77.1945 },
  { "name": "West Virginia", "lat": 38.5976, "lon": -80.4549 },
  { "name": "Idaho", "lat": 44.0682, "lon": -114.7420 },
  { "name": "Washington", "lat": 47.7511, "lon": -120.7401 },
  { "name": "Montana", "lat": 46.8797, "lon": -110.3626 },
  { "name": "Bozeman", "lat": 45.6769, "lon": -111.0429 },
  { "name": "Spokane", "lat": 47.6588, "lon": -117.4260 },
  { "name": "Lewiston", "lat": 46.4165, "lon": -117.0177 },
  { "name": "Missoula", "lat": 46.8721, "lon": -113.9940 },
  { "name": "Butte", "lat": 45.9969, "lon": -112.5348 },
  { "name": "Great Falls", "lat": 47.4942, "lon": -111.2830 },
  { "name": "Helena", "lat": 46.5891, "lon": -112.0391 },
  { "name": "Coeur d'Alene", "lat": 47.6777, "lon": -116.7805 },
  { "name": "Pocatello", "lat": 42.8713, "lon": -112.4455 },
  { "name": "Yakima", "lat": 46.6022, "lon": -120.5059 },
  { "name": "Walla Walla", "lat": 46.0646, "lon": -118.3430 },
  { "name": "Pullman", "lat": 46.7317, "lon": -117.1791 },
  { "name": "Moscow", "lat": 46.7324, "lon": -117.0002 },
  { "name": "Carson City", "lat": 39.1638, "lon": -119.7674 }, 
  { "name": "Henderson", "lat": 36.0397, "lon": -114.9819 }, 
  { "name": "Provo", "lat": 40.2338, "lon": -111.6585 }, 
  { "name": "St. George", "lat": 37.0965, "lon": -113.5684 }, 
  { "name": "Albany", "lat": 42.6512, "lon": -73.7550 }, 
  { "name": "Rochester", "lat": 43.1566, "lon": -77.6088 }, 
  { "name": "Buffalo", "lat": 42.8802, "lon": -78.8780 }, 
  { "name": "Topeka", "lat": 39.0473, "lon": -95.6752 },
  { "name": "Fargo", "lat": 46.8772, "lon": -96.7898 },
  { "name": "Boise", "lat": 43.6150, "lon": -116.2023 },
  { "name": "Little Rock", "lat": 34.7465, "lon": -92.2896 },
  { "name": "Jackson", "lat": 32.2988, "lon": -90.1848 },
  { "name": "Des Moines", "lat": 41.6005, "lon": -93.6091 },
  { "name": "Wichita", "lat": 37.6872, "lon": -97.3301 },
  { "name": "Manchester", "lat": 42.9956, "lon": -71.4548 },
  { "name": "Birmingham", "lat": 33.5207, "lon": -86.8025 },
  { "name": "Charleston", "lat": 32.7765, "lon": -79.9311 },
  { "name": "Sioux Falls", "lat": 43.5446, "lon": -96.7311 },
  { "name": "Memphis", "lat": 35.1495, "lon": -90.0490 },
  { "name": "Bozeman", "lat": 45.6769, "lon": -111.0429 },
  { "name": "Madison", "lat": 43.0731, "lon": -89.4012 },
  { "name": "Helena", "lat": 46.5891, "lon": -112.0391 },
  { "name": "Midland", "lat": 31.9974, "lon": -102.0779 },
  { "name": "Odessa", "lat": 31.8457, "lon": -102.3676 },
  { "name": "Roswell", "lat": 33.3943, "lon": -104.5230 },
  { "name": "Clovis", "lat": 34.4048, "lon": -103.2052 },
  { "name": "Amarillo", "lat": 35.2219971, "lon": -101.8312969 },
  { "name": "Plainview", "lat": 34.1848, "lon": -101.7073 },
  { "name": "Lamesa", "lat": 32.7371, "lon": -101.9504 },
  { "name": "Hobbs", "lat": 32.7026, "lon": -103.1360 },
  { "name": "Miles City", "lat": 46.4083, "lon": -105.8406 },
  { "name": "Sidney", "lat": 47.7162, "lon": -104.1622 },
  { "name": "Grand Junction", "lat": 39.0639, "lon": -108.5506 },
  { "name": "Flagstaff", "lat": 35.1983, "lon": -111.6513 },
  { "name": "Jackson", "lat": 43.4799, "lon": -110.7624 },
  { "name": "Pocatello", "lat": 42.8713, "lon": -112.4455 },
  { "name": "Garden City", "lat": 37.6897, "lon": -100.8313 },
  { "name": "Lamar", "lat": 38.0903, "lon": -102.6193 },
  { "name": "Redding", "lat": 40.5865, "lon": -122.3917 },
  { "name": "Winnemucca", "lat": 40.9730, "lon": -117.7357 },
  { "name": "Ely", "lat": 39.2474, "lon": -114.8889 },
  { "name": "Rolla", "lat": 37.9535, "lon": -91.9758 },
  { "name": "Branson", "lat": 36.6437, "lon": -93.2185 },
  { "name": "Mobile", "lat": 30.6954, "lon": -88.0399 },
  { "name": "Tallahassee", "lat": 30.4383, "lon": -84.2807 }
]
